{"type": ["FeatureCollection"], "features": [{"geometry": {"type": "Point", "coordinates": [17.0328427, 51.1052668]}, "type": "Feature", "properties": {"name": "Pomocnicza ulica Bo\u017cego Cia\u0142a dla Szko\u0142a Podstawowa nr 63"}}, {"geometry": {"type": "Point", "coordinates": [17.037044, 51.1096621]}, "type": "Feature", "properties": {"name": "Pomocnicza ulica Biskupia dla Budynek Uniwersytetu Wroc\u0142awskiego"}}, {"geometry": {"type": "Point", "coordinates": [17.0356395, 51.1140689]}, "type": "Feature", "properties": {"name": "Pomocnicza ulica Aleksandra hr. Fredry dla Gimnazjum nr 29"}}, {"geometry": {"type": "Point", "coordinates": [17.0305114, 51.1129949]}, "type": "Feature", "properties": {"name": "Pomocnicza ulica Garbary dla Przedszkole nr 65"}}, {"geometry": {"type": "Point", "coordinates": [17.0295167, 51.1082773]}, "type": "Feature", "properties": {"name": "Pomocnicza ulica Gepperta dla BWA Galerie Sztuki Wsp\u00f3\u0142czesnej"}}, {"geometry": {"type": "Point", "coordinates": [17.0281021, 51.1123732]}, "type": "Feature", "properties": {"name": "Pomocnicza ulica Bia\u0142osk\u00f3rnicza dla Muzeum Militari\u00f3w - Arsena\u0142"}}, {"geometry": {"type": "Point", "coordinates": [17.0470296, 51.1145949]}, "type": "Feature", "properties": {"name": "Pomocnicza ulica Kanonia dla Szko\u0142a Podstawowa nr 84"}}, {"geometry": {"type": "Point", "coordinates": [17.0211877, 51.1046237]}, "type": "Feature", "properties": {"name": "Pomocnicza ulica Grabiszy\u0144ska 9 dla Zesp\u00f3\u0142 Szk\u00f3\u0142 nr 7"}}, {"geometry": {"type": "Point", "coordinates": [16.9779297, 51.092519]}, "type": "Feature", "properties": {"name": "Pomocnicza ulica Grabiszy\u0144ska 70 dla Liceum Og\u00f3lnokszta\u0142c\u0105ce nr XVII"}}, {"geometry": {"type": "Point", "coordinates": [17.0160399, 51.1033225]}, "type": "Feature", "properties": {"name": "Pomocnicza ulica Grabiszy\u0144ska 43 dla Liceum Og\u00f3lnokszta\u0142c\u0105ce nr XVII"}}, {"geometry": {"type": "Point", "coordinates": [17.0188712, 51.103415]}, "type": "Feature", "properties": {"name": "Pomocnicza ulica Grabiszy\u0144ska 18 dla Zesp\u00f3\u0142 Szk\u00f3\u0142 nr 7 (Szko\u0142a Podstawowa nr 97)"}}, {"geometry": {"type": "Point", "coordinates": [17.0216647, 51.1040349]}, "type": "Feature", "properties": {"name": "Pomocnicza ulica Grabiszy\u0144ska 2 dla Zesp\u00f3\u0142 Szkolno-Przedszkolny nr 13"}}, {"geometry": {"type": "Point", "coordinates": [17.027949, 51.1032513]}, "type": "Feature", "properties": {"name": "Pomocnicza ulica Ba\u0142uckiego dla Klub Muzyki i Literatury"}}, {"geometry": {"type": "Point", "coordinates": [17.039753, 51.1030088]}, "type": "Feature", "properties": {"name": "Pomocnicza ulica Dworcowa 1 dla Gimnazjum nr 14"}}, {"geometry": {"type": "Point", "coordinates": [17.0327102, 51.1025075]}, "type": "Feature", "properties": {"name": "Pomocnicza ulica Czysta dla Szko\u0142a Podstawowa nr 71"}}, {"geometry": {"type": "Point", "coordinates": [17.0093162, 51.1012356]}, "type": "Feature", "properties": {"name": "Pomocnicza ulica Grabiszy\u0144ska 82 dla Szko\u0142a Podstawowa nr 68"}}, {"geometry": {"type": "Point", "coordinates": [17.0084816, 51.0998542]}, "type": "Feature", "properties": {"name": "Pomocnicza ulica Lwowska 3 dla Szko\u0142a Podstawowa nr 68"}}, {"geometry": {"type": "Point", "coordinates": [17.0078749, 51.1008635]}, "type": "Feature", "properties": {"name": "Pomocnicza ulica Grabiszy\u0144ska 88 dla Szko\u0142a Podstawowa nr 68"}}, {"geometry": {"type": "Point", "coordinates": [17.0108005, 51.0990047]}, "type": "Feature", "properties": {"name": "Pomocnicza ulica Jemio\u0142owa 14 dla Gimnazjum nr 16"}}, {"geometry": {"type": "Point", "coordinates": [17.0013647, 51.1016975]}, "type": "Feature", "properties": {"name": "Pomocnicza ulica Br\u0105zowa dla Zesp\u00f3\u0142 Szk\u00f3\u0142 nr 11"}}, {"geometry": {"type": "Point", "coordinates": [17.0029494, 51.0976989]}, "type": "Feature", "properties": {"name": "Pomocnicza ulica Grochowa 25 dla Zesp\u00f3\u0142 Szk\u00f3\u0142 nr 11"}}, {"geometry": {"type": "Point", "coordinates": [17.0091154, 51.0943914]}, "type": "Feature", "properties": {"name": "Pomocnicza ulica Gajowicka 109 dla Gimnazjum nr 16"}}, {"geometry": {"type": "Point", "coordinates": [17.003627, 51.0961992]}, "type": "Feature", "properties": {"name": "Pomocnicza ulica Altanowa dla Zesp\u00f3\u0142 Szk\u00f3\u0142 Og\u00f3lnokszta\u0142c\u0105cych nr 5"}}, {"geometry": {"type": "Point", "coordinates": [16.9981592, 51.0976738]}, "type": "Feature", "properties": {"name": "Pomocnicza ulica Cynowa dla Zesp\u00f3\u0142 Szk\u00f3\u0142 nr 11"}}, {"geometry": {"type": "Point", "coordinates": [17.0057597, 51.0885441]}, "type": "Feature", "properties": {"name": "Pomocnicza ulica Aleja Genera\u0142a Hallera 31 dla Przedszkole nr 141"}}, {"geometry": {"type": "Point", "coordinates": [17.0027127, 51.0894328]}, "type": "Feature", "properties": {"name": "Pomocnicza ulica Buska dla Liceum Og\u00f3lnokszta\u0142c\u0105ce nr VII"}}, {"geometry": {"type": "Point", "coordinates": [17.0082722, 51.0932375]}, "type": "Feature", "properties": {"name": "Pomocnicza ulica Krucza 70 dla Liceum Og\u00f3lnokszta\u0142c\u0105ce nr VII"}}, {"geometry": {"type": "Point", "coordinates": [16.9949285, 51.0906614]}, "type": "Feature", "properties": {"name": "Pomocnicza ulica Aleja Genera\u0142a Hallera 95 dla Gimnazjum nr 6"}}, {"geometry": {"type": "Point", "coordinates": [16.9884273, 51.0914371]}, "type": "Feature", "properties": {"name": "Pomocnicza ulica Aleja Genera\u0142a Hallera 139 dla Szko\u0142a Podstawowa nr 109"}}, {"geometry": {"type": "Point", "coordinates": [16.9872801, 51.0948453]}, "type": "Feature", "properties": {"name": "Pomocnicza ulica In\u017cynierska dla Szko\u0142a Podstawowa nr 109"}}, {"geometry": {"type": "Point", "coordinates": [16.9757147, 51.0929045]}, "type": "Feature", "properties": {"name": "Pomocnicza ulica Fio\u0142kowa dla Przychodnia Specjalistyczno-Rehabilitacyjna \u201ePULSANTIS\u201d Sp. z o.o."}}, {"geometry": {"type": "Point", "coordinates": [16.9954991, 51.0888708]}, "type": "Feature", "properties": {"name": "Pomocnicza ulica Aleja Genera\u0142a Hallera 80 dla Szko\u0142a Podstawowa nr 82"}}, {"geometry": {"type": "Point", "coordinates": [16.9894373, 51.0820136]}, "type": "Feature", "properties": {"name": "Pomocnicza ulica Blacharska dla Szko\u0142a Podstawowa nr 82"}}, {"geometry": {"type": "Point", "coordinates": [17.028127, 51.1254002]}, "type": "Feature", "properties": {"name": "Pomocnicza ulica \u0141owiecka dla Liceum Og\u00f3lnokszta\u0142c\u0105ce nr III"}}, {"geometry": {"type": "Point", "coordinates": [17.027042, 51.1240154]}, "type": "Feature", "properties": {"name": "Pomocnicza ulica Biskupa Tomasza Pierwszego dla Liceum Og\u00f3lnokszta\u0142c\u0105ce nr III"}}, {"geometry": {"type": "Point", "coordinates": [17.035157, 51.1212901]}, "type": "Feature", "properties": {"name": "Pomocnicza ulica Boles\u0142awa Chrobrego 3 dla Rada Osiedla Nadodrze"}}, {"geometry": {"type": "Point", "coordinates": [17.033821, 51.1164631]}, "type": "Feature", "properties": {"name": "Pomocnicza ulica Drobnera 1 dla Gimnazjum nr 4"}}, {"geometry": {"type": "Point", "coordinates": [17.0350721, 51.1217]}, "type": "Feature", "properties": {"name": "Pomocnicza ulica Boles\u0142awa Chrobrego 11 dla Szko\u0142a Podstawowa nr 108"}}, {"geometry": {"type": "Point", "coordinates": [17.0321345, 51.1182198]}, "type": "Feature", "properties": {"name": "Pomocnicza ulica Henryka Brodatego 1 dla Szko\u0142a Podstawowa nr 108"}}, {"geometry": {"type": "Point", "coordinates": [17.0309879, 51.1210174]}, "type": "Feature", "properties": {"name": "Pomocnicza ulica Kaszubska dla Zesp\u00f3\u0142 Szkolno-Przedszkolny nr 8"}}, {"geometry": {"type": "Point", "coordinates": [17.0336764, 51.1170419]}, "type": "Feature", "properties": {"name": "Pomocnicza ulica Drobnera 10 dla Zesp\u00f3\u0142 Szkolno-Przedszkolny nr 8"}}, {"geometry": {"type": "Point", "coordinates": [17.0333233, 51.1161226]}, "type": "Feature", "properties": {"name": "Pomocnicza ulica Cybulskiego dla Niepubliczny Zak\u0142ad Opieki Zdrowotnej"}}, {"geometry": {"type": "Point", "coordinates": [17.0376258, 51.1187661]}, "type": "Feature", "properties": {"name": "Pomocnicza ulica Henryka Probusa 1 dla Szko\u0142a Podstawowa nr 93"}}, {"geometry": {"type": "Point", "coordinates": [17.0392565, 51.1184334]}, "type": "Feature", "properties": {"name": "Pomocnicza ulica Drobnera 32 dla Klub \u201eIskierka\u201d"}}, {"geometry": {"type": "Point", "coordinates": [17.0421665, 51.1215582]}, "type": "Feature", "properties": {"name": "Pomocnicza ulica Jedno\u015bci Narodowej 92 dla Publiczne Przedszkole \u201eLeonardo\u201d"}}, {"geometry": {"type": "Point", "coordinates": [17.0456416, 51.1279748]}, "type": "Feature", "properties": {"name": "Pomocnicza ulica Antoniego S\u0142onimskiego dla Szko\u0142a Podstawowa nr 74"}}, {"geometry": {"type": "Point", "coordinates": [17.0326421, 51.1285626]}, "type": "Feature", "properties": {"name": "Pomocnicza ulica Kraszewskiego dla Szko\u0142a Podstawowa nr 74"}}, {"geometry": {"type": "Point", "coordinates": [17.0324672, 51.1265242]}, "type": "Feature", "properties": {"name": "Pomocnicza ulica D\u0119bickiego dla Szko\u0142a Podstawowa nr 74"}}, {"geometry": {"type": "Point", "coordinates": [17.0419385, 51.1173461]}, "type": "Feature", "properties": {"name": "Pomocnicza ulica Genera\u0142a Bema dla Rada Osiedla O\u0142bin"}}, {"geometry": {"type": "Point", "coordinates": [17.0467448, 51.1201105]}, "type": "Feature", "properties": {"name": "Pomocnicza ulica Barycka 4 dla Liceum Og\u00f3lnokszta\u0142c\u0105ce nr I"}}, {"geometry": {"type": "Point", "coordinates": [17.0488875, 51.1222993]}, "type": "Feature", "properties": {"name": "Pomocnicza ulica Barlickiego 18 dla Gimnazjum nr 8"}}, {"geometry": {"type": "Point", "coordinates": [17.0476426, 51.1212756]}, "type": "Feature", "properties": {"name": "Pomocnicza ulica Barlickiego 4 dla Gimnazjum nr 15"}}, {"geometry": {"type": "Point", "coordinates": [17.0464886, 51.125316]}, "type": "Feature", "properties": {"name": "Pomocnicza ulica Jedno\u015bci Narodowej 145 dla Gimnazjum nr 15"}}, {"geometry": {"type": "Point", "coordinates": [17.0518683, 51.1253454]}, "type": "Feature", "properties": {"name": "Pomocnicza ulica Karola Miarki 2 dla Szko\u0142a Podstawowa nr 78"}}, {"geometry": {"type": "Point", "coordinates": [17.0541435, 51.1255249]}, "type": "Feature", "properties": {"name": "Pomocnicza ulica Cincia\u0142y dla Szko\u0142a Podstawowa nr 78"}}, {"geometry": {"type": "Point", "coordinates": [17.0567927, 51.1277686]}, "type": "Feature", "properties": {"name": "Pomocnicza ulica Bacha dla Szko\u0142a Podstawowa nr 78"}}, {"geometry": {"type": "Point", "coordinates": [17.0590896, 51.1216938]}, "type": "Feature", "properties": {"name": "Pomocnicza ulica Ignacego Daszy\u0144skiego dla Szko\u0142aPodstawowa nr 1"}}, {"geometry": {"type": "Point", "coordinates": [17.0502823, 51.1234154]}, "type": "Feature", "properties": {"name": "Pomocnicza ulica Barlickiego 32 dla Przedszkole nr 55"}}, {"geometry": {"type": "Point", "coordinates": [17.0495832, 51.1213386]}, "type": "Feature", "properties": {"name": "Pomocnicza ulica B\u0142ogos\u0142awionej Edyty Stein dla Szko\u0142a Podstawowa nr 1"}}, {"geometry": {"type": "Point", "coordinates": [17.0480923, 51.1211665]}, "type": "Feature", "properties": {"name": "Pomocnicza ulica Barlickiego 1 dla Szko\u0142a Podstawowa nr 1"}}, {"geometry": {"type": "Point", "coordinates": [17.049266, 51.117147]}, "type": "Feature", "properties": {"name": "Pomocnicza ulica Aleja Matejki dla Szko\u0142a Podstawowa nr 107"}}, {"geometry": {"type": "Point", "coordinates": [17.0471092, 51.1200629]}, "type": "Feature", "properties": {"name": "Pomocnicza ulica Barycka 3 dla "}}, {"geometry": {"type": "Point", "coordinates": [17.055839, 51.116726]}, "type": "Feature", "properties": {"name": "Pomocnicza ulica G\u00f3rnickiego 11 dla Przedszkole nr 74 \u201eMa\u0142y Piekarczyk\u201d"}}, {"geometry": {"type": "Point", "coordinates": [17.0592178, 51.1186945]}, "type": "Feature", "properties": {"name": "Pomocnicza ulica Miko\u0142aja Reja 49 dla Przedszkole nr 109"}}, {"geometry": {"type": "Point", "coordinates": [17.0674959, 51.1135933]}, "type": "Feature", "properties": {"name": "Pomocnicza ulica Bujwida dla Dolno\u015bl\u0105ski Oddzia\u0142 Okr\u0119gowy Polskiego Czerwonego Krzy\u017ca"}}, {"geometry": {"type": "Point", "coordinates": [17.0525911, 51.1154761]}, "type": "Feature", "properties": {"name": "Pomocnicza ulica Benedykty\u0144ska 14 dla Rada Osiedla Plac Grunwaldzki"}}, {"geometry": {"type": "Point", "coordinates": [17.0518192, 51.1153003]}, "type": "Feature", "properties": {"name": "Pomocnicza ulica Benedykty\u0144ska 3 dla Gimnazjum nr 13"}}, {"geometry": {"type": "Point", "coordinates": [17.0563131, 51.1122239]}, "type": "Feature", "properties": {"name": "Pomocnicza ulica Marii Curie-Sk\u0142odowskiej 1 dla Szko\u0142a Podstawowa nr 12"}}, {"geometry": {"type": "Point", "coordinates": [17.0595405, 51.1101041]}, "type": "Feature", "properties": {"name": "Pomocnicza ulica Janiszewskiego dla Szko\u0142a Podstawowa nr 12"}}, {"geometry": {"type": "Point", "coordinates": [17.0660184, 51.1098726]}, "type": "Feature", "properties": {"name": "Pomocnicza ulica Cha\u0142ubi\u0144skiego dla Dom Studencki \u201eParawanowiec\u201d"}}, {"geometry": {"type": "Point", "coordinates": [17.0580655, 51.1144097]}, "type": "Feature", "properties": {"name": "Pomocnicza ulica Grunwaldzka 26 dla Dom Studencki \"Dwudziestolatka\""}}, {"geometry": {"type": "Point", "coordinates": [17.0761344, 51.1177243]}, "type": "Feature", "properties": {"name": "Pomocnicza ulica Aleja Kochanowskiego 13 dla Zesp\u00f3\u0142 Szk\u00f3\u0142 nr 15"}}, {"geometry": {"type": "Point", "coordinates": [17.0906803, 51.113418]}, "type": "Feature", "properties": {"name": "Pomocnicza ulica Aleja Paderewskiego dla Zesp\u00f3\u0142 Szk\u00f3\u0142 nr 15"}}, {"geometry": {"type": "Point", "coordinates": [17.0705624, 51.1082294]}, "type": "Feature", "properties": {"name": "Pomocnicza ulica Adama Mickiewicza 4 dla Zesp\u00f3\u0142 Szk\u00f3\u0142 nr 22"}}, {"geometry": {"type": "Point", "coordinates": [17.0923605, 51.1136365]}, "type": "Feature", "properties": {"name": "Pomocnicza ulica  9 Maja dla Zesp\u00f3\u0142 Szk\u00f3\u0142 nr 9"}}, {"geometry": {"type": "Point", "coordinates": [17.1028292, 51.1084025]}, "type": "Feature", "properties": {"name": "Pomocnicza ulica Borelowskiego 1 dla Gimnazjum nr 19"}}, {"geometry": {"type": "Point", "coordinates": [17.0920435, 51.1132154]}, "type": "Feature", "properties": {"name": "Pomocnicza ulica Adama Mickiewicza 35 dla Zesp\u00f3\u0142 Szk\u00f3\u0142 nr 9"}}, {"geometry": {"type": "Point", "coordinates": [17.1035145, 51.1085225]}, "type": "Feature", "properties": {"name": "Pomocnicza ulica Borelowskiego 2 dla Zesp\u00f3\u0142 Szk\u00f3\u0142 nr 9"}}, {"geometry": {"type": "Point", "coordinates": [17.0832562, 51.1007634]}, "type": "Feature", "properties": {"name": "Pomocnicza ulica Biegasa dla Dom Studencki \u201eArka\u201d"}}, {"geometry": {"type": "Point", "coordinates": [17.1008522, 51.0987052]}, "type": "Feature", "properties": {"name": "Pomocnicza ulica Braci Gierymskich 19 dla Gimnazjum nr 20"}}, {"geometry": {"type": "Point", "coordinates": [17.1097187, 51.1059988]}, "type": "Feature", "properties": {"name": "Pomocnicza ulica Mielczarskiego dla Zesp\u00f3\u0142 Szk\u00f3\u0142 nr 19"}}, {"geometry": {"type": "Point", "coordinates": [17.1145092, 51.1035062]}, "type": "Feature", "properties": {"name": "Pomocnicza ulica Canaletta dla Szko\u0142aPodstawowa nr 91"}}, {"geometry": {"type": "Point", "coordinates": [17.1072895, 51.1046898]}, "type": "Feature", "properties": {"name": "Pomocnicza ulica Abramowskiego dla Szko\u0142a Podstawowa nr 91"}}, {"geometry": {"type": "Point", "coordinates": [17.113385, 51.1008275]}, "type": "Feature", "properties": {"name": "Pomocnicza ulica Bartoszowicka dla Stra\u017c Miejska Wroc\u0142awia"}}, {"geometry": {"type": "Point", "coordinates": [17.0274923, 51.0947177]}, "type": "Feature", "properties": {"name": "Pomocnicza ulica Komandorska 66 dla Sportowa Szko\u0142a Podstawowa nr 72"}}, {"geometry": {"type": "Point", "coordinates": [17.0303414, 51.0936657]}, "type": "Feature", "properties": {"name": "Pomocnicza ulica Sanocka dla Gimnazjum nr 17"}}, {"geometry": {"type": "Point", "coordinates": [17.0289445, 51.0979058]}, "type": "Feature", "properties": {"name": "Pomocnicza ulica Komandorska 23 dla Gimnazjum nr 17"}}, {"geometry": {"type": "Point", "coordinates": [17.0185413, 51.0971456]}, "type": "Feature", "properties": {"name": "Pomocnicza ulica Grabskiego dla Szko\u0142a Podstawowa nr 30"}}, {"geometry": {"type": "Point", "coordinates": [17.0223722, 51.1016909]}, "type": "Feature", "properties": {"name": "Pomocnicza ulica Stysia dla Centrum Kszta\u0142cenia Ustawicznego Budynek - C"}}, {"geometry": {"type": "Point", "coordinates": [17.0284903, 51.1000867]}, "type": "Feature", "properties": {"name": "Pomocnicza ulica Nasypowa dla Centrum Kszta\u0142cenia Ustawicznego Budynek - B"}}, {"geometry": {"type": "Point", "coordinates": [17.0219484, 51.0921087]}, "type": "Feature", "properties": {"name": "Pomocnicza ulica Drukarska 1 dla Sportowa Szko\u0142a Podstawowa nr 72"}}, {"geometry": {"type": "Point", "coordinates": [17.0187005, 51.0905804]}, "type": "Feature", "properties": {"name": "Pomocnicza ulica Kamienna 2 dla Zesp\u00f3\u0142 Szk\u00f3\u0142 Ekonomicznych"}}, {"geometry": {"type": "Point", "coordinates": [17.0202673, 51.0895992]}, "type": "Feature", "properties": {"name": "Pomocnicza ulica Drukarska 31 dla Zesp\u00f3\u0142 Szk\u00f3\u0142 Ekonomicznych"}}, {"geometry": {"type": "Point", "coordinates": [17.016011, 51.0920604]}, "type": "Feature", "properties": {"name": "Pomocnicza ulica Energetyczna dla Gimnazjum nr 30"}}, {"geometry": {"type": "Point", "coordinates": [17.0132019, 51.092751]}, "type": "Feature", "properties": {"name": "Pomocnicza ulica Jantarowa dla Gimnazjum nr 30"}}, {"geometry": {"type": "Point", "coordinates": [17.0181732, 51.0945222]}, "type": "Feature", "properties": {"name": "Pomocnicza ulica Gwia\u017adzista dla Liceum Og\u00f3lnokszta\u0142c\u0105ce nr VIII"}}, {"geometry": {"type": "Point", "coordinates": [17.0140284, 51.0963313]}, "type": "Feature", "properties": {"name": "Pomocnicza ulica Gajowicka 64 dla Liceum Og\u00f3lnokszta\u0142c\u0105ce nr VIII"}}, {"geometry": {"type": "Point", "coordinates": [17.0112727, 51.0868535]}, "type": "Feature", "properties": {"name": "Pomocnicza ulica Aleja Genera\u0142a Hallera 3 dla Szko\u0142a Podstawowa nr 76"}}, {"geometry": {"type": "Point", "coordinates": [17.0132198, 51.0864138]}, "type": "Feature", "properties": {"name": "Pomocnicza ulica Aleja Wi\u015bniowa 4 dla Szko\u0142a Podstawowa nr 76"}}, {"geometry": {"type": "Point", "coordinates": [17.0110215, 51.0863335]}, "type": "Feature", "properties": {"name": "Pomocnicza ulica Aleja Genera\u0142a Hallera 2 dla Gimnazjum nr 23"}}, {"geometry": {"type": "Point", "coordinates": [17.0035461, 51.0818126]}, "type": "Feature", "properties": {"name": "Pomocnicza ulica Orla dla Gimnazjum nr 23"}}, {"geometry": {"type": "Point", "coordinates": [17.0038499, 51.0882082]}, "type": "Feature", "properties": {"name": "Pomocnicza ulica Aleja Genera\u0142a Hallera 36 dla Przedszkole nr 61"}}, {"geometry": {"type": "Point", "coordinates": [17.0114864, 51.0723301]}, "type": "Feature", "properties": {"name": "Pomocnicza ulica Andrzeja Walig\u00f3rskiego dla Zesp\u00f3\u0142 Szk\u00f3\u0142 nr 4"}}, {"geometry": {"type": "Point", "coordinates": [17.012357, 51.0858815]}, "type": "Feature", "properties": {"name": "Pomocnicza ulica Aleja Wi\u015bniowa 1 dla Dolno\u015bl\u0105ski Zak\u0142ad Doskonalenia Zawodowego Zesp\u00f3\u0142 Szk\u00f3\u0142"}}, {"geometry": {"type": "Point", "coordinates": [17.015127, 51.0828196]}, "type": "Feature", "properties": {"name": "Pomocnicza ulica Aleja Akacjowa dla Szko\u0142a Podstawowa nr 47"}}, {"geometry": {"type": "Point", "coordinates": [17.0394527, 51.073269]}, "type": "Feature", "properties": {"name": "Pomocnicza ulica Czerniawska dla O\u015brodek Postaw Tw\u00f3rczych"}}, {"geometry": {"type": "Point", "coordinates": [17.0388985, 51.073177]}, "type": "Feature", "properties": {"name": "Pomocnicza ulica Adama Uzna\u0144skiego dla O\u015brodek Postaw Tw\u00f3rczych"}}, {"geometry": {"type": "Point", "coordinates": [17.0258538, 51.0835031]}, "type": "Feature", "properties": {"name": "Pomocnicza ulica Aleja Armii Krajowej 1 dla Komenda Wojew\u00f3dzka Pa\u0144stwowej Stra\u017cy Po\u017carnej"}}, {"geometry": {"type": "Point", "coordinates": [17.0500269, 51.0780452]}, "type": "Feature", "properties": {"name": "Pomocnicza ulica Glogera dla Szko\u0142a Podstawowa nr 90"}}, {"geometry": {"type": "Point", "coordinates": [17.0473545, 51.0825197]}, "type": "Feature", "properties": {"name": "Pomocnicza ulica Krynicka 2 dla Szko\u0142aPodstawowa nr 90"}}, {"geometry": {"type": "Point", "coordinates": [17.0459888, 51.0757791]}, "type": "Feature", "properties": {"name": "Pomocnicza ulica Bielawska dla Szko\u0142a Podstawowa nr 90"}}, {"geometry": {"type": "Point", "coordinates": [17.0408998, 51.0797245]}, "type": "Feature", "properties": {"name": "Pomocnicza ulica Orzechowa 44 dla Szko\u0142aPodstawowa nr 90"}}, {"geometry": {"type": "Point", "coordinates": [17.040777, 51.0827]}, "type": "Feature", "properties": {"name": "Pomocnicza ulica Orzechowa 9 dla O\u015brodek Szkolenia Zawodowego we Wroc\u0142awiu"}}, {"geometry": {"type": "Point", "coordinates": [17.0364949, 51.0933765]}, "type": "Feature", "properties": {"name": "Pomocnicza ulica Ciep\u0142a dla Szko\u0142a Podstawowa nr 73 ul. Gliniana 30"}}, {"geometry": {"type": "Point", "coordinates": [17.0329971, 51.0986087]}, "type": "Feature", "properties": {"name": "Pomocnicza ulica Borowska 1 dla Szko\u0142a Podstawowa nr 73"}}, {"geometry": {"type": "Point", "coordinates": [17.0428154, 51.0932603]}, "type": "Feature", "properties": {"name": "Pomocnicza ulica Dawida dla Zesp\u00f3\u0142 Szk\u00f3\u0142 nr 23"}}, {"geometry": {"type": "Point", "coordinates": [17.0346779, 51.0888331]}, "type": "Feature", "properties": {"name": "Pomocnicza ulica Borowska 74 dla Przedszkole nr 119 \u201eZielona \u0141\u0105ka\u201d"}}, {"geometry": {"type": "Point", "coordinates": [17.040657, 51.088773]}, "type": "Feature", "properties": {"name": "Pomocnicza ulica Gajowa 70 dla Zesp\u00f3\u0142 Szkolno-Przedszkolny nr 17"}}, {"geometry": {"type": "Point", "coordinates": [17.0433331, 51.0924059]}, "type": "Feature", "properties": {"name": "Pomocnicza ulica Boczna dla Zesp\u00f3\u0142 Szk\u00f3\u0142 nr 23"}}, {"geometry": {"type": "Point", "coordinates": [17.0453536, 51.0906107]}, "type": "Feature", "properties": {"name": "Pomocnicza ulica Hubska 70 dla Gimnazjum nr 21"}}, {"geometry": {"type": "Point", "coordinates": [17.0400597, 51.0835111]}, "type": "Feature", "properties": {"name": "Pomocnicza ulica Aleja Armii Krajowej 2 dla Gimnazjum nr 21"}}, {"geometry": {"type": "Point", "coordinates": [17.0337873, 51.0908668]}, "type": "Feature", "properties": {"name": "Pomocnicza ulica Borowska 76 dla Zesp\u00f3\u0142 Szk\u00f3\u0142 nr 2"}}, {"geometry": {"type": "Point", "coordinates": [17.0400631, 51.0841863]}, "type": "Feature", "properties": {"name": "Pomocnicza ulica \u015aliczna 39 dla Zesp\u00f3\u0142 Szkolno-Przedszkolny nr 17"}}, {"geometry": {"type": "Point", "coordinates": [17.0498241, 51.088067]}, "type": "Feature", "properties": {"name": "Pomocnicza ulica Henrykowska dla Szko\u0142a Podstawowa nr 9"}}, {"geometry": {"type": "Point", "coordinates": [17.0496004, 51.0846458]}, "type": "Feature", "properties": {"name": "Pomocnicza ulica Bardzka 2 dla Szko\u0142a Podstawowa nr 9"}}, {"geometry": {"type": "Point", "coordinates": [17.0612419, 51.0847488]}, "type": "Feature", "properties": {"name": "Pomocnicza ulica Aleja Armii Krajowej 54 dla Wroc\u0142awskie Mieszkania Sp. z o.o. BOK nr 6"}}, {"geometry": {"type": "Point", "coordinates": [17.0547816, 51.0968292]}, "type": "Feature", "properties": {"name": "Pomocnicza ulica Krakowska 1 dla Szko\u0142a Podstawowa nr 96"}}, {"geometry": {"type": "Point", "coordinates": [17.0536929, 51.1003861]}, "type": "Feature", "properties": {"name": "Pomocnicza ulica Plac Zgody dla Przedszkole Integracyjne nr 12"}}, {"geometry": {"type": "Point", "coordinates": [17.050267, 51.0973314]}, "type": "Feature", "properties": {"name": "Pomocnicza ulica Brzeska dla Gimnazjum nr 3"}}, {"geometry": {"type": "Point", "coordinates": [17.0469334, 51.101703]}, "type": "Feature", "properties": {"name": "Pomocnicza ulica Komuny Paryskiej 77 dla Liceum Og\u00f3lnokszta\u0142c\u0105ce nr IV"}}, {"geometry": {"type": "Point", "coordinates": [17.0521467, 51.1015419]}, "type": "Feature", "properties": {"name": "Pomocnicza ulica Genera\u0142a Pr\u0105dzy\u0144skiego 1 dla Przedszkole nr 35 \u201eT\u0119czowy Domek\u201d"}}, {"geometry": {"type": "Point", "coordinates": [17.0492744, 51.1020735]}, "type": "Feature", "properties": {"name": "Pomocnicza ulica \u0141ukasi\u0144skiego dla Muzeum Etnograficzne"}}, {"geometry": {"type": "Point", "coordinates": [17.0400802, 51.1008542]}, "type": "Feature", "properties": {"name": "Pomocnicza ulica Dworcowa 22 dla Szko\u0142a Podstawowa nr 2"}}, {"geometry": {"type": "Point", "coordinates": [17.0437171, 51.1057128]}, "type": "Feature", "properties": {"name": "Pomocnicza ulica Genera\u0142a Haukego-Bosaka 2 dla Szermiercza Sportowa Szko\u0142a Podstawowa nr 85"}}, {"geometry": {"type": "Point", "coordinates": [17.0416437, 51.1016673]}, "type": "Feature", "properties": {"name": "Pomocnicza ulica Genera\u0142a Kniaziewicza 15 dla Zesp\u00f3\u0142 Szk\u00f3\u0142 nr 5"}}, {"geometry": {"type": "Point", "coordinates": [17.0445892, 51.1050454]}, "type": "Feature", "properties": {"name": "Pomocnicza ulica Genera\u0142a Haukego-Bosaka 11 dla Zesp\u00f3\u0142 Szk\u00f3\u0142 Teleinformatycznych i Elektronicznych"}}, {"geometry": {"type": "Point", "coordinates": [17.0401515, 51.1029125]}, "type": "Feature", "properties": {"name": "Pomocnicza ulica Dworcowa 2 dla Zesp\u00f3\u0142 Szk\u00f3\u0142 Ekonomiczno-Administracyjnych"}}, {"geometry": {"type": "Point", "coordinates": [17.0918806, 51.0886785]}, "type": "Feature", "properties": {"name": "Pomocnicza ulica Bierdza\u0144ska dla Terapeutyczna Szko\u0142a Podstawowa nr 119"}}, {"geometry": {"type": "Point", "coordinates": [17.0815626, 51.0759412]}, "type": "Feature", "properties": {"name": "Pomocnicza ulica Bytomska dla Terapeutyczna Szko\u0142a Podstawowa nr 119"}}, {"geometry": {"type": "Point", "coordinates": [17.0925038, 51.0512898]}, "type": "Feature", "properties": {"name": "Pomocnicza ulica Arabska dla Przedszkole nr 51"}}, {"geometry": {"type": "Point", "coordinates": [17.0863828, 51.0516604]}, "type": "Feature", "properties": {"name": "Pomocnicza ulica Aleja R\u00f3\u017c dla Szko\u0142a Podstawowa nr 80"}}, {"geometry": {"type": "Point", "coordinates": [17.0857236, 51.0582122]}, "type": "Feature", "properties": {"name": "Pomocnicza ulica  3 Maja dla Szko\u0142a Podstawowa nr 80"}}, {"geometry": {"type": "Point", "coordinates": [17.0617287, 51.0646796]}, "type": "Feature", "properties": {"name": "Pomocnicza ulica Braci Hofmann\u00f3w dla Rada Osiedla Jagodno"}}, {"geometry": {"type": "Point", "coordinates": [17.0555215, 51.0484043]}, "type": "Feature", "properties": {"name": "Pomocnicza ulica Franciszki Plat\u00f3wny dla \u015awietlica Cztery Pory Roku \"Zima\""}}, {"geometry": {"type": "Point", "coordinates": [17.0449361, 51.0634537]}, "type": "Feature", "properties": {"name": "Pomocnicza ulica Asfaltowa dla Szko\u0142a Podstawowa nr 23"}}, {"geometry": {"type": "Point", "coordinates": [17.0314129, 51.0512551]}, "type": "Feature", "properties": {"name": "Pomocnicza ulica Bia\u0142oszewskiego dla Szko\u0142a Podstawowa nr 23"}}, {"geometry": {"type": "Point", "coordinates": [17.013085, 51.0566717]}, "type": "Feature", "properties": {"name": "Pomocnicza ulica D\u0105bka dla Zesp\u00f3\u0142 Szkolno-Przedszkolny nr 6"}}, {"geometry": {"type": "Point", "coordinates": [17.0212475, 51.0547112]}, "type": "Feature", "properties": {"name": "Pomocnicza ulica Admira\u0142a Unruga dla Zesp\u00f3\u0142 Szkolno-Przedszkolny nr 6"}}, {"geometry": {"type": "Point", "coordinates": [17.0253327, 51.0453759]}, "type": "Feature", "properties": {"name": "Pomocnicza ulica Agatowa dla Zesp\u00f3\u0142 Szkolno-Przedszkolny nr 6"}}, {"geometry": {"type": "Point", "coordinates": [17.0043973, 51.0731039]}, "type": "Feature", "properties": {"name": "Pomocnicza ulica Jesienna dla Rada Osiedla Krzyki-Partynice"}}, {"geometry": {"type": "Point", "coordinates": [17.0125366, 51.070285]}, "type": "Feature", "properties": {"name": "Pomocnicza ulica Agrestowa 3 dla Szko\u0142a Podstawowa nr 64"}}, {"geometry": {"type": "Point", "coordinates": [17.0177403, 51.0652326]}, "type": "Feature", "properties": {"name": "Pomocnicza ulica Agrestowa 100 dla Szko\u0142a Podstawowa nr 64"}}, {"geometry": {"type": "Point", "coordinates": [16.9930672, 51.0752103]}, "type": "Feature", "properties": {"name": "Pomocnicza ulica Burzowa dla Zesp\u00f3\u0142 Szkolno-Przedszkolny nr 16"}}, {"geometry": {"type": "Point", "coordinates": [16.9980945, 51.0765093]}, "type": "Feature", "properties": {"name": "Pomocnicza ulica Ch\u0142odna dla Szko\u0142a Podstawowa nr 61"}}, {"geometry": {"type": "Point", "coordinates": [16.9956056, 51.069682]}, "type": "Feature", "properties": {"name": "Pomocnicza ulica Babiego Lata dla Zesp\u00f3\u0142 Szkolno-Przedszkolny nr 16"}}, {"geometry": {"type": "Point", "coordinates": [16.9876734, 51.0587681]}, "type": "Feature", "properties": {"name": "Pomocnicza ulica Aleja Karkonoska dla Szko\u0142a Podstawowa nr 61"}}, {"geometry": {"type": "Point", "coordinates": [16.9701425, 51.0612119]}, "type": "Feature", "properties": {"name": "Pomocnicza ulica Balladyny dla Zesp\u00f3\u0142 Plac\u00f3wek O\u015bwiatowych nr 1"}}, {"geometry": {"type": "Point", "coordinates": [16.9776119, 51.0661249]}, "type": "Feature", "properties": {"name": "Pomocnicza ulica Buraczana dla Zesp\u00f3\u0142 Plac\u00f3wek O\u015bwiatowych nr 1"}}, {"geometry": {"type": "Point", "coordinates": [16.964303, 51.0773506]}, "type": "Feature", "properties": {"name": "Pomocnicza ulica Aleja Piast\u00f3w 1 dla Zesp\u00f3\u0142 Szkolno-Przedszkolny nr 9"}}, {"geometry": {"type": "Point", "coordinates": [16.9628243, 51.0743176]}, "type": "Feature", "properties": {"name": "Pomocnicza ulica Adamieckiego dla Zesp\u00f3\u0142 Szkolno-Przedszkolny nr 9"}}, {"geometry": {"type": "Point", "coordinates": [16.9693498, 51.0760085]}, "type": "Feature", "properties": {"name": "Pomocnicza ulica Aleja Piast\u00f3w 30 dla Gimnazjum nr 40"}}, {"geometry": {"type": "Point", "coordinates": [17.015778, 51.1186595]}, "type": "Feature", "properties": {"name": "Pomocnicza ulica D\u0142uga dla Sportowa Szko\u0142a Podstawowa nr 46"}}, {"geometry": {"type": "Point", "coordinates": [17.0033313, 51.1177669]}, "type": "Feature", "properties": {"name": "Pomocnicza ulica G\u0142ogowska 13 dla Sportowa Szko\u0142a Podstawowa nr 46"}}, {"geometry": {"type": "Point", "coordinates": [17.0012385, 51.1195854]}, "type": "Feature", "properties": {"name": "Pomocnicza ulica Chojnowska dla Zesp\u00f3\u0142 Szk\u00f3\u0142 nr 1"}}, {"geometry": {"type": "Point", "coordinates": [17.0080479, 51.1187896]}, "type": "Feature", "properties": {"name": "Pomocnicza ulica \u015acinawska dla Wroc\u0142awski Zak\u0142ad Aktywno\u015bci Zawodowej"}}, {"geometry": {"type": "Point", "coordinates": [17.0121143, 51.1150207]}, "type": "Feature", "properties": {"name": "Pomocnicza ulica Czarnieckiego 2 dla Wroc\u0142awski Zak\u0142ad Aktywno\u015bci Zawodowej"}}, {"geometry": {"type": "Point", "coordinates": [17.003189, 51.1153643]}, "type": "Feature", "properties": {"name": "Pomocnicza ulica G\u0142ogowska 1 dla Zesp\u00f3\u0142 Szkolno-Przedszkolny nr 18"}}, {"geometry": {"type": "Point", "coordinates": [17.0025129, 51.114591]}, "type": "Feature", "properties": {"name": "Pomocnicza ulica Boles\u0142awiecka dla Elektroniczne Zak\u0142ady Naukowe"}}, {"geometry": {"type": "Point", "coordinates": [17.0064936, 51.1160465]}, "type": "Feature", "properties": {"name": "Pomocnicza ulica Czarnieckiego 27 dla Zesp\u00f3\u0142 Szkolno-Przedszkolny nr 18"}}, {"geometry": {"type": "Point", "coordinates": [17.0091739, 51.1154014]}, "type": "Feature", "properties": {"name": "Pomocnicza ulica Czarnieckiego 30 dla Gimnazjum nr 28"}}, {"geometry": {"type": "Point", "coordinates": [17.0197251, 51.1126167]}, "type": "Feature", "properties": {"name": "Pomocnicza ulica Drzewna dla Gimnazjum nr 28"}}, {"geometry": {"type": "Point", "coordinates": [17.0134726, 51.1131998]}, "type": "Feature", "properties": {"name": "Pomocnicza ulica Inowroc\u0142awska 1 dla Niepubliczny Zak\u0142ad Opieki Zdrowotnej \"STARMED\""}}, {"geometry": {"type": "Point", "coordinates": [17.0145032, 51.1111266]}, "type": "Feature", "properties": {"name": "Pomocnicza ulica Braniborska 19 dla Elektroniczne Zak\u0142ady Naukowe"}}, {"geometry": {"type": "Point", "coordinates": [17.0170405, 51.1110023]}, "type": "Feature", "properties": {"name": "Pomocnicza ulica Braniborska 1 dla NZOZ O\u015brodek Medyczny \u201dZIEMO-VITA\u201d Sp. z o.o."}}, {"geometry": {"type": "Point", "coordinates": [16.9849104, 51.1208145]}, "type": "Feature", "properties": {"name": "Pomocnicza ulica Brynicka dla Gimnazjum nr 18"}}, {"geometry": {"type": "Point", "coordinates": [16.9795687, 51.1190028]}, "type": "Feature", "properties": {"name": "Pomocnicza ulica Kwiska dla Przedszkole nr 122 \u201eWeso\u0142a Gromadka\u201d"}}, {"geometry": {"type": "Point", "coordinates": [16.9816733, 51.1181418]}, "type": "Feature", "properties": {"name": "Pomocnicza ulica Bystrzycka 22 dla Gimnazjum nr 18"}}, {"geometry": {"type": "Point", "coordinates": [16.9670132, 51.1241852]}, "type": "Feature", "properties": {"name": "Pomocnicza ulica Drzewieckiego 4 dla Szko\u0142a Podstawowa nr 118"}}, {"geometry": {"type": "Point", "coordinates": [16.9633098, 51.1278159]}, "type": "Feature", "properties": {"name": "Pomocnicza ulica Bajana 25 dla Szko\u0142aPodstawowa nr 118"}}, {"geometry": {"type": "Point", "coordinates": [16.954631, 51.12652]}, "type": "Feature", "properties": {"name": "Pomocnicza ulica Idzikowskiego dla Szko\u0142a Podstawowa nr 118"}}, {"geometry": {"type": "Point", "coordinates": [16.9651546, 51.1296731]}, "type": "Feature", "properties": {"name": "Pomocnicza ulica Bajana 3 dla Przedszkole nr 113 \u201eAkademia Przedszkolaka\u201d"}}, {"geometry": {"type": "Point", "coordinates": [16.9787959, 51.127765]}, "type": "Feature", "properties": {"name": "Pomocnicza ulica Lotnicza 7 dla Przedszkole nr 113 \u201eAkademia Przedszkolaka\u201d"}}, {"geometry": {"type": "Point", "coordinates": [16.9733607, 51.1259341]}, "type": "Feature", "properties": {"name": "Pomocnicza ulica Bulwar Ikara dla Zesp\u00f3\u0142 Szkolno-Przedszkolny nr 2"}}, {"geometry": {"type": "Point", "coordinates": [16.9615408, 51.1224653]}, "type": "Feature", "properties": {"name": "Pomocnicza ulica Balonowa dla Zesp\u00f3\u0142 Szkolno-Przedszkolny nr 2"}}, {"geometry": {"type": "Point", "coordinates": [16.9670132, 51.1241852]}, "type": "Feature", "properties": {"name": "Pomocnicza ulica Drzewieckiego 38 dla Zesp\u00f3\u0142 Szkolno-Przedszkolny nr 2"}}, {"geometry": {"type": "Point", "coordinates": [16.9396341, 51.1392377]}, "type": "Feature", "properties": {"name": "Pomocnicza ulica Al. \u015al\u0105ska dla Zesp\u00f3\u0142 Szkolno-Przedszkolny nr 7"}}, {"geometry": {"type": "Point", "coordinates": [16.959098, 51.1325091]}, "type": "Feature", "properties": {"name": "Pomocnicza ulica Hutnicza dla Liceum Og\u00f3lnokszta\u0142c\u0105ce nr VI"}}, {"geometry": {"type": "Point", "coordinates": [16.954316, 51.1347927]}, "type": "Feature", "properties": {"name": "Pomocnicza ulica Bednarska dla Liceum Og\u00f3lnokszta\u0142c\u0105ce nr VI"}}, {"geometry": {"type": "Point", "coordinates": [16.9735175, 51.1356666]}, "type": "Feature", "properties": {"name": "Pomocnicza ulica Kolista dla Gimnazjum nr 7"}}, {"geometry": {"type": "Point", "coordinates": [16.9654193, 51.1399886]}, "type": "Feature", "properties": {"name": "Pomocnicza ulica Dokerska 3 dla Przedszkolenr 150 \u201eWeso\u0142e Nutki\u201d"}}, {"geometry": {"type": "Point", "coordinates": [16.9646473, 51.1384884]}, "type": "Feature", "properties": {"name": "Pomocnicza ulica Dokerska 2 dla Zesp\u00f3\u0142 Szk\u00f3\u0142 nr 21"}}, {"geometry": {"type": "Point", "coordinates": [16.9712766, 51.1385179]}, "type": "Feature", "properties": {"name": "Pomocnicza ulica Kozanowska 63 dla Zesp\u00f3\u0142 Szk\u00f3\u0142 nr 21"}}, {"geometry": {"type": "Point", "coordinates": [16.9709178, 51.137784]}, "type": "Feature", "properties": {"name": "Pomocnicza ulica Dzielna 1 dla Gimnazjum nr 7"}}, {"geometry": {"type": "Point", "coordinates": [16.9740256, 51.1330518]}, "type": "Feature", "properties": {"name": "Pomocnicza ulica Kozanowska 13 dla Wi\u015bla\u0144ska Gimnazjum nr 7"}}, {"geometry": {"type": "Point", "coordinates": [16.9804281, 51.1379585]}, "type": "Feature", "properties": {"name": "Pomocnicza ulica Celtycka dla Gimnazjum nr 7"}}, {"geometry": {"type": "Point", "coordinates": [16.9918796, 51.1235458]}, "type": "Feature", "properties": {"name": "Pomocnicza ulica Bia\u0142owieska 4 dla Szko\u0142a Podstawowa nr 3"}}, {"geometry": {"type": "Point", "coordinates": [16.9873563, 51.1277216]}, "type": "Feature", "properties": {"name": "Pomocnicza ulica Bobrza 28 dla Szko\u0142a Podstawowa nr 3"}}, {"geometry": {"type": "Point", "coordinates": [16.991127, 51.1228248]}, "type": "Feature", "properties": {"name": "Pomocnicza ulica Legnicka 51 dla Gimnazjum nr 1"}}, {"geometry": {"type": "Point", "coordinates": [16.9936826, 51.1284411]}, "type": "Feature", "properties": {"name": "Pomocnicza ulica Bia\u0142owieska 1 dla Gimnazjum nr 1"}}, {"geometry": {"type": "Point", "coordinates": [16.9996611, 51.1233984]}, "type": "Feature", "properties": {"name": "Pomocnicza ulica Jelenia dla Gimnazjum nr 1"}}, {"geometry": {"type": "Point", "coordinates": [16.9875957, 51.1262733]}, "type": "Feature", "properties": {"name": "Pomocnicza ulica Ojc\u00f3w Oblat\u00f3w dla Szko\u0142aPodstawowa nr 3"}}, {"geometry": {"type": "Point", "coordinates": [16.9950522, 51.1119315]}, "type": "Feature", "properties": {"name": "Pomocnicza ulica Robotnicza 98 dla Zesp\u00f3\u0142 Szk\u00f3\u0142 nr 3"}}, {"geometry": {"type": "Point", "coordinates": [16.9609541, 51.1110055]}, "type": "Feature", "properties": {"name": "Pomocnicza ulica Esto\u0144ska 40 dla Zesp\u00f3\u0142 Szk\u00f3\u0142 nr 3"}}, {"geometry": {"type": "Point", "coordinates": [16.9657922, 51.1094005]}, "type": "Feature", "properties": {"name": "Pomocnicza ulica Angielska dla Szko\u0142a Podstawowa nr 28"}}, {"geometry": {"type": "Point", "coordinates": [16.9724379, 51.1060374]}, "type": "Feature", "properties": {"name": "Pomocnicza ulica Austriacka dla Szko\u0142a Podstawowa nr 28"}}, {"geometry": {"type": "Point", "coordinates": [16.9476667, 51.1041473]}, "type": "Feature", "properties": {"name": "Pomocnicza ulica Boguszewskiej dla Wroc\u0142awski Klub \u201eFORMATY\u201d"}}, {"geometry": {"type": "Point", "coordinates": [16.957798, 51.0972354]}, "type": "Feature", "properties": {"name": "Pomocnicza ulica Bli\u017aniacza dla Zesp\u00f3\u0142 Szkolno-Przedszkolny nr 15"}}, {"geometry": {"type": "Point", "coordinates": [16.9523991, 51.0883547]}, "type": "Feature", "properties": {"name": "Pomocnicza ulica Awicenny dla Zesp\u00f3\u0142 Szkolno-Przedszkolny nr 15"}}, {"geometry": {"type": "Point", "coordinates": [16.9393635, 51.0945672]}, "type": "Feature", "properties": {"name": "Pomocnicza ulica Baranowicka dla Zesp\u00f3\u0142 Szkolno-Przedszkolny nr 15"}}, {"geometry": {"type": "Point", "coordinates": [16.958059, 51.1119509]}, "type": "Feature", "properties": {"name": "Pomocnicza ulica Budziszy\u0144ska 76 dla Przedszkolenr 148"}}, {"geometry": {"type": "Point", "coordinates": [16.9582678, 51.1167736]}, "type": "Feature", "properties": {"name": "Pomocnicza ulica Rogowska 2 dla Zesp\u00f3\u0142 Szk\u00f3\u0142 nr 6"}}, {"geometry": {"type": "Point", "coordinates": [16.9586613, 51.116998]}, "type": "Feature", "properties": {"name": "Pomocnicza ulica Chociebuska dla Zesp\u00f3\u0142 Szk\u00f3\u0142 nr 6"}}, {"geometry": {"type": "Point", "coordinates": [16.9651095, 51.114342]}, "type": "Feature", "properties": {"name": "Pomocnicza ulica Nowodworska dla Zesp\u00f3\u0142 Szk\u00f3\u0142 nr 6"}}, {"geometry": {"type": "Point", "coordinates": [16.9635649, 51.1143252]}, "type": "Feature", "properties": {"name": "Pomocnicza ulica Budziszy\u0144ska 1 dla Przedszkolenr 123"}}, {"geometry": {"type": "Point", "coordinates": [16.9508462, 51.1183207]}, "type": "Feature", "properties": {"name": "Pomocnicza ulica Zemska 9 dla Zesp\u00f3\u0142 Szkolno-Przedszkolny nr 1"}}, {"geometry": {"type": "Point", "coordinates": [16.9537842, 51.1112295]}, "type": "Feature", "properties": {"name": "Pomocnicza ulica Komorowska dla Zesp\u00f3\u0142 Szkolno-Przedszkolny nr 1"}}, {"geometry": {"type": "Point", "coordinates": [16.9482903, 51.1182134]}, "type": "Feature", "properties": {"name": "Pomocnicza ulica Rogowska 106 dla Liceum Og\u00f3lnokszta\u0142c\u0105ce nr XV"}}, {"geometry": {"type": "Point", "coordinates": [16.9448964, 51.1227087]}, "type": "Feature", "properties": {"name": "Pomocnicza ulica Dar\u0142owska dla Rada Osiedla Ku\u017aniki"}}, {"geometry": {"type": "Point", "coordinates": [16.9505369, 51.1236825]}, "type": "Feature", "properties": {"name": "Pomocnicza ulica Hermanowska dla Rada Osiedla Ku\u017aniki"}}, {"geometry": {"type": "Point", "coordinates": [16.9441829, 51.1258177]}, "type": "Feature", "properties": {"name": "Pomocnicza ulica D\u017awirzy\u0144ska dla Rada Osiedla Ku\u017aniki"}}, {"geometry": {"type": "Point", "coordinates": [16.9144097, 51.1255421]}, "type": "Feature", "properties": {"name": "Pomocnicza ulica Dojazd dla Zesp\u00f3\u0142 Szkolno-Przedszkolny nr 10"}}, {"geometry": {"type": "Point", "coordinates": [16.9282099, 51.1147152]}, "type": "Feature", "properties": {"name": "Pomocnicza ulica Basi Wo\u0142odyjowskiej dla Zesp\u00f3\u0142 Szkolno-Przedszkolny nr 10"}}, {"geometry": {"type": "Point", "coordinates": [16.865838, 51.1205397]}, "type": "Feature", "properties": {"name": "Pomocnicza ulica Adamczewskich dla Rada Osiedla Jerzmanowo-Jarno\u0142t\u00f3wStrachowice-Osiniec"}}, {"geometry": {"type": "Point", "coordinates": [16.8551778, 51.1436407]}, "type": "Feature", "properties": {"name": "Pomocnicza ulica Al.Klonowa dla Centrum Kultury \"ZAMEK\""}}, {"geometry": {"type": "Point", "coordinates": [16.890306, 51.1489888]}, "type": "Feature", "properties": {"name": "Pomocnicza ulica Amarantowa dla Szko\u0142a Podstawowa nr 95"}}, {"geometry": {"type": "Point", "coordinates": [16.8670325, 51.1485885]}, "type": "Feature", "properties": {"name": "Pomocnicza ulica Brzezi\u0144ska dla Zesp\u00f3\u0142 Szk\u00f3\u0142 nr 24"}}, {"geometry": {"type": "Point", "coordinates": [16.8734598, 51.1620895]}, "type": "Feature", "properties": {"name": "Pomocnicza ulica Alfreda Jahna dla Zesp\u00f3\u0142 Szk\u00f3\u0142 nr 24"}}, {"geometry": {"type": "Point", "coordinates": [16.8690194, 51.1431905]}, "type": "Feature", "properties": {"name": "Pomocnicza ulica K\u0105cka dla Przedszkole nr 66 \u201eBajkolandia\u201d"}}, {"geometry": {"type": "Point", "coordinates": [16.8861344, 51.1365207]}, "type": "Feature", "properties": {"name": "Pomocnicza ulica Ch\u0119ci\u0144ska dla Zesp\u00f3\u0142 Szkolno-Przedszkolny nr 14"}}, {"geometry": {"type": "Point", "coordinates": [16.8868051, 51.1340698]}, "type": "Feature", "properties": {"name": "Pomocnicza ulica Boche\u0144ska dla Zesp\u00f3\u0142 Szkolno-Przedszkolny nr 14"}}, {"geometry": {"type": "Point", "coordinates": [16.8929558, 51.147829]}, "type": "Feature", "properties": {"name": "Pomocnicza ulica Be\u017cowa dla Szko\u0142a Podstawowa nr 95"}}, {"geometry": {"type": "Point", "coordinates": [16.896874, 51.1572666]}, "type": "Feature", "properties": {"name": "Pomocnicza ulica Ananasowa dla Szko\u0142a Podstawowa nr 95"}}, {"geometry": {"type": "Point", "coordinates": [16.8823741, 51.1652021]}, "type": "Feature", "properties": {"name": "Pomocnicza ulica Bojanowska dla Szko\u0142a Podstawowa nr 95"}}, {"geometry": {"type": "Point", "coordinates": [16.9247459, 51.1370958]}, "type": "Feature", "properties": {"name": "Pomocnicza ulica Bia\u0142odrzewna dla Dolno\u015bl\u0105ski Specjalny O\u015brodek SzkolnoWychowawczy nr 13 dla Niewidomych i S\u0142abowidz\u0105cych"}}, {"geometry": {"type": "Point", "coordinates": [16.9246285, 51.1635949]}, "type": "Feature", "properties": {"name": "Pomocnicza ulica Bia\u0142ostocka dla Gimnazjum nr 22"}}, {"geometry": {"type": "Point", "coordinates": [16.9389686, 51.1475085]}, "type": "Feature", "properties": {"name": "Pomocnicza ulica Braniewska dla Zesp\u00f3\u0142 Szkolno-Przedszkolny nr 12"}}, {"geometry": {"type": "Point", "coordinates": [16.9307725, 51.1535576]}, "type": "Feature", "properties": {"name": "Pomocnicza ulica Augustowska dla Zesp\u00f3\u0142 Szkolno-Przedszkolny nr 12"}}, {"geometry": {"type": "Point", "coordinates": [16.938481, 51.1552464]}, "type": "Feature", "properties": {"name": "Pomocnicza ulica Aleja \u015aliwowa dla Zesp\u00f3\u0142 Szkolno-Przedszkoly nr 12"}}, {"geometry": {"type": "Point", "coordinates": [16.8970845, 51.1642696]}, "type": "Feature", "properties": {"name": "Pomocnicza ulica Polonii Wroc\u0142awskiej dla Szko\u0142a Podstawowa nr 22"}}, {"geometry": {"type": "Point", "coordinates": [16.9149718, 51.1712562]}, "type": "Feature", "properties": {"name": "Pomocnicza ulica Brodzka 131 dla Szko\u0142a Podstawowa nr 22"}}, {"geometry": {"type": "Point", "coordinates": [17.0784263, 51.1301029]}, "type": "Feature", "properties": {"name": "Pomocnicza ulica Al. Aleksandra Br\u00fccknera dla Zesp\u00f3\u0142 Szk\u00f3\u0142 nr 14"}}, {"geometry": {"type": "Point", "coordinates": [17.0650752, 51.1317403]}, "type": "Feature", "properties": {"name": "Pomocnicza ulica Aleja Kromera dla Szko\u0142a Podstawowa nr 83"}}, {"geometry": {"type": "Point", "coordinates": [17.0442224, 51.1369894]}, "type": "Feature", "properties": {"name": "Pomocnicza ulica Aleja Kasprowicza 34 dla Przedszkole Integracyjne nr 68"}}, {"geometry": {"type": "Point", "coordinates": [17.0441398, 51.1393932]}, "type": "Feature", "properties": {"name": "Pomocnicza ulica Anczyca dla Szko\u0142a Podstawowa nr 83"}}, {"geometry": {"type": "Point", "coordinates": [17.0662021, 51.1387902]}, "type": "Feature", "properties": {"name": "Pomocnicza ulica Czajkowskiego dla Gimnazjum nr 24"}}, {"geometry": {"type": "Point", "coordinates": [17.0647356, 51.141635]}, "type": "Feature", "properties": {"name": "Pomocnicza ulica Koszarowa dla Sportowa Gimnazjum nr 24"}}, {"geometry": {"type": "Point", "coordinates": [17.0400312, 51.141168]}, "type": "Feature", "properties": {"name": "Pomocnicza ulica Baczy\u0144skiego dla Szko\u0142a Podstawowa nr 20"}}, {"geometry": {"type": "Point", "coordinates": [17.0324983, 51.1401661]}, "type": "Feature", "properties": {"name": "Pomocnicza ulica Kamie\u0144skiego 10 \u2013162 dla Szko\u0142aPodstawowa nr 20"}}, {"geometry": {"type": "Point", "coordinates": [17.0372127, 51.1354151]}, "type": "Feature", "properties": {"name": "Pomocnicza ulica Aleja Kasprowicza 1 dla Przedszkolenr 149 \u201eT\u0119czowa Polanka\u201d"}}, {"geometry": {"type": "Point", "coordinates": [17.0087986, 51.158263]}, "type": "Feature", "properties": {"name": "Pomocnicza ulica \u0106wiczebna 1 dla Szko\u0142aPodstawowa nr 50"}}, {"geometry": {"type": "Point", "coordinates": [17.0191143, 51.1350966]}, "type": "Feature", "properties": {"name": "Pomocnicza ulica Ba\u0142ka\u0144ska dla Szko\u0142a Podstawowa nr 50"}}, {"geometry": {"type": "Point", "coordinates": [17.0345831, 51.1349392]}, "type": "Feature", "properties": {"name": "Pomocnicza ulica Obornicka 14 dla Liceum Og\u00f3lnokszta\u0142c\u0105ce nr X"}}, {"geometry": {"type": "Point", "coordinates": [17.0301029, 51.1358799]}, "type": "Feature", "properties": {"name": "Pomocnicza ulica Macedo\u0144ska dla Liceum Og\u00f3lnokszta\u0142c\u0105ce nr X"}}, {"geometry": {"type": "Point", "coordinates": [17.0204882, 51.1381362]}, "type": "Feature", "properties": {"name": "Pomocnicza ulica Jugos\u0142owia\u0144ska dla Gimnazjum nr 27"}}, {"geometry": {"type": "Point", "coordinates": [17.0261336, 51.1416078]}, "type": "Feature", "properties": {"name": "Pomocnicza ulica Bezpieczna dla Gimnazjum nr 27"}}, {"geometry": {"type": "Point", "coordinates": [17.0263465, 51.137191]}, "type": "Feature", "properties": {"name": "Pomocnicza ulica Chorwacka dla Gimnazjum nr 27"}}, {"geometry": {"type": "Point", "coordinates": [17.1003317, 51.1344354]}, "type": "Feature", "properties": {"name": "Pomocnicza ulica Bociania dla Szko\u0142a Podstawowa nr 8"}}, {"geometry": {"type": "Point", "coordinates": [17.0795953, 51.1286123]}, "type": "Feature", "properties": {"name": "Pomocnicza ulica Aleja Kochanowskiego 93 dla Zesp\u00f3\u0142 Szk\u00f3\u0142 nr 14"}}, {"geometry": {"type": "Point", "coordinates": [17.1479254, 51.1147354]}, "type": "Feature", "properties": {"name": "Pomocnicza ulica Chmielarska dla Zesp\u00f3\u0142 Szkolno-Przedszkolny nr 11"}}, {"geometry": {"type": "Point", "coordinates": [17.1627846, 51.0978838]}, "type": "Feature", "properties": {"name": "Pomocnicza ulica B\u0142otna dla Zesp\u00f3\u0142 Szkolno-Przedszkolny nr 11"}}, {"geometry": {"type": "Point", "coordinates": [17.1399204, 51.1075745]}, "type": "Feature", "properties": {"name": "Pomocnicza ulica Badury dla Rada Osiedla Strachocin-SwojczyceWojn\u00f3w"}}, {"geometry": {"type": "Point", "coordinates": [17.1219609, 51.1386889]}, "type": "Feature", "properties": {"name": "Pomocnicza ulica B\u0142awatna dla Przedszkole nr 140 \u201ePod Platanem\u201d"}}, {"geometry": {"type": "Point", "coordinates": [17.1377138, 51.1432842]}, "type": "Feature", "properties": {"name": "Pomocnicza ulica Litewska dla Zesp\u00f3\u0142 Szkolno-Przedszkolny nr 3"}}, {"geometry": {"type": "Point", "coordinates": [17.1278337, 51.1461829]}, "type": "Feature", "properties": {"name": "Pomocnicza ulica Poleska 1 dla Zesp\u00f3\u0142 Szkolno-Przedszkolny nr 3"}}, {"geometry": {"type": "Point", "coordinates": [17.1302957, 51.1449662]}, "type": "Feature", "properties": {"name": "Pomocnicza ulica Inflancka dla Zesp\u00f3\u0142 Szkolno-Przedszkolny nr 3"}}, {"geometry": {"type": "Point", "coordinates": [17.1187541, 51.1465712]}, "type": "Feature", "properties": {"name": "Pomocnicza ulica Kie\u0142czowska 31 dla Zesp\u00f3\u0142 Szkolno-Przedszkolny nr 3"}}, {"geometry": {"type": "Point", "coordinates": [17.1003001, 51.1569125]}, "type": "Feature", "properties": {"name": "Pomocnicza ulica Bia\u0142ych Go\u017adzik\u00f3w dla Szko\u0142a Podstawowa nr 98"}}, {"geometry": {"type": "Point", "coordinates": [17.1462021, 51.1580333]}, "type": "Feature", "properties": {"name": "Pomocnicza ulica Bierutowska dla Szko\u0142aPodstawowa nr 98"}}, {"geometry": {"type": "Point", "coordinates": [17.1122068, 51.1451203]}, "type": "Feature", "properties": {"name": "Pomocnicza ulica Farna dla Gimnazjum nr 2"}}, {"geometry": {"type": "Point", "coordinates": [17.1321642, 51.1587342]}, "type": "Feature", "properties": {"name": "Pomocnicza ulica Chocimska dla Zesp\u00f3\u0142 Szk\u00f3\u0142 nr 10"}}, {"geometry": {"type": "Point", "coordinates": [17.1312843, 51.1626709]}, "type": "Feature", "properties": {"name": "Pomocnicza ulica Armii Ludowej dla Zesp\u00f3\u0142 Szk\u00f3\u0142 nr 10"}}, {"geometry": {"type": "Point", "coordinates": [17.126546, 51.16252]}, "type": "Feature", "properties": {"name": "Pomocnicza ulica Admiralska dla Fundacja \u201ePrzyjazny Dom\u201d im. Stanis\u0142awa Jab\u0142onki"}}, {"geometry": {"type": "Point", "coordinates": [17.1275402, 51.157177]}, "type": "Feature", "properties": {"name": "Pomocnicza ulica Belgradzka dla Publiczna Szko\u0142a Podstawowa i Przedszkole \u201eMARCOPOLO\u201d"}}, {"geometry": {"type": "Point", "coordinates": [17.100592, 51.1675978]}, "type": "Feature", "properties": {"name": "Pomocnicza ulica Astrowa dla Szko\u0142a Podstawowa nr 39"}}, {"geometry": {"type": "Point", "coordinates": [17.0819601, 51.1396274]}, "type": "Feature", "properties": {"name": "Pomocnicza ulica Aleja Poprzeczna dla Zesp\u00f3\u0142 Szkolno-Przedszkolny nr 4 (Szko\u0142a Podstawowa nr 40)"}}, {"geometry": {"type": "Point", "coordinates": [17.0673968, 51.1510012]}, "type": "Feature", "properties": {"name": "Pomocnicza ulica Czytankowa dla Zesp\u00f3\u0142 Szkolno-Przedszkolny nr 4 (Szko\u0142a Podstawowa nr 40)"}}, {"geometry": {"type": "Point", "coordinates": [17.044947, 51.1530478]}, "type": "Feature", "properties": {"name": "Pomocnicza ulica Adama Jerzego Czartoryskiego dla O\u015brodek Opieku\u0144czo Adaptacyjny \u201ePensjonat dla Os\u00f3b Starszych\u201d"}}, {"geometry": {"type": "Point", "coordinates": [17.0450581, 51.1603579]}, "type": "Feature", "properties": {"name": "Pomocnicza ulica A\u0142unowa dla Rada Osiedla Polanowice-Po\u015bwi\u0119tne-Ligota (budynek O\u015brodka Opieku\u0144czoAdaptacyjnego \"Pensjonat dla Os\u00f3b Starszych\u201e)"}}, {"geometry": {"type": "Point", "coordinates": [17.0204982, 51.1767292]}, "type": "Feature", "properties": {"name": "Pomocnicza ulica Aleksandra Szniolisa dla Dom Pomocy Spo\u0142ecznej"}}, {"geometry": {"type": "Point", "coordinates": [16.9969711, 51.1767978]}, "type": "Feature", "properties": {"name": "Pomocnicza ulica Any\u017cowa dla Rada Osiedla \u015awiniary"}}, {"geometry": {"type": "Point", "coordinates": [16.9981096, 51.1438154]}, "type": "Feature", "properties": {"name": "Pomocnicza ulica \u0106wiczebna 100 dla Zesp\u00f3\u0142 Szkolno-Przedszkolny nr 5"}}]}